{
"type": "FeatureCollection",
"name": "Polling_Locations",
"crs": { "type": "name", "properties": { "name": "urn:ogc:def:crs:OGC:1.3:CRS84" } },
"features": [
{ "type": "Feature", "properties": { "OBJECTID": 63, "NAME": "GREAT BROOK VALLEY MULTI-PURPOSE CENTER", "FULLADD": "180 CONSTITUTION AVE", "CITY": "Worcester", "STATE": "MA", "WARD": 2, "PRECINCT": 5, "WARD_PREC": "2-5" }, "geometry": { "type": "Point", "coordinates": [ -71.771961355810248, 42.308358131514581 ] } },
{ "type": "Feature", "properties": { "OBJECTID": 64, "NAME": "WORCESTER TECHNICAL HIGH SCHOOL, GYM", "FULLADD": "1 OFFICER MANNY FAMILIA WAY (FORMERLY SKYLINE DR)", "CITY": "Worcester", "STATE": "MA", "WARD": 3, "PRECINCT": 4, "WARD_PREC": "3-4" }, "geometry": { "type": "Point", "coordinates": [ -71.778177821563659, 42.278230634250562 ] } },
{ "type": "Feature", "properties": { "OBJECTID": 65, "NAME": "UNITARIAN UNIVERSALIST CHURCH, HALL", "FULLADD": "90 HOLDEN ST", "CITY": "Worcester", "STATE": "MA", "WARD": 1, "PRECINCT": 6, "WARD_PREC": "1-6" }, "geometry": { "type": "Point", "coordinates": [ -71.817787192730577, 42.30524439486279 ] } },
{ "type": "Feature", "properties": { "OBJECTID": 66, "NAME": "SALEM COVENANT CHURCH, HALL", "FULLADD": "215 MOUNTAIN ST EAST", "CITY": "Worcester", "STATE": "MA", "WARD": 2, "PRECINCT": 1, "WARD_PREC": "2-1" }, "geometry": { "type": "Point", "coordinates": [ -71.774797147843842, 42.31796565522702 ] } },
{ "type": "Feature", "properties": { "OBJECTID": 67, "NAME": "LIVING WORD CHURCH", "FULLADD": "30 TYLER PRENTICE RD", "CITY": "Worcester", "STATE": "MA", "WARD": 3, "PRECINCT": 5, "WARD_PREC": "3-5" }, "geometry": { "type": "Point", "coordinates": [ -71.769555841139223, 42.293735889637375 ] } },
{ "type": "Feature", "properties": { "OBJECTID": 68, "NAME": "FRIENDLY HOUSE, REAR, GYM", "FULLADD": "36 WALL ST", "CITY": "Worcester", "STATE": "MA", "WARD": 4, "PRECINCT": 1, "WARD_PREC": "4-1" }, "geometry": { "type": "Point", "coordinates": [ -71.785651172965913, 42.258446035725314 ] } },
{ "type": "Feature", "properties": { "OBJECTID": 69, "NAME": "LINCOLN PARK TOWER, COMMUNITY ROOM", "FULLADD": "11 LAKE AVE", "CITY": "Worcester", "STATE": "MA", "WARD": 4, "PRECINCT": 5, "WARD_PREC": "4-5" }, "geometry": { "type": "Point", "coordinates": [ -71.758162155133448, 42.273399839661394 ] } },
{ "type": "Feature", "properties": { "OBJECTID": 70, "NAME": "ADDISON APARTMENTS, COMMUNITY ROOM", "FULLADD": "6 ADDISON ST", "CITY": "Worcester", "STATE": "MA", "WARD": 5, "PRECINCT": 1, "WARD_PREC": "5-1" }, "geometry": { "type": "Point", "coordinates": [ -71.785803110409447, 42.251307748453918 ] } },
{ "type": "Feature", "properties": { "OBJECTID": 71, "NAME": "BLACKSTONE HERITAGE CORRIDOR VISITOR CENTER", "FULLADD": "3 PAUL CLANCY WAY", "CITY": "Worcester", "STATE": "MA", "WARD": 6, "PRECINCT": 5, "WARD_PREC": "6-5" }, "geometry": { "type": "Point", "coordinates": [ -71.79592415922211, 42.2365796110658 ] } },
{ "type": "Feature", "properties": { "OBJECTID": 72, "NAME": "COES POND VILLAGE", "FULLADD": "39 FIRST ST", "CITY": "Worcester", "STATE": "MA", "WARD": 7, "PRECINCT": 2, "WARD_PREC": "7-2" }, "geometry": { "type": "Point", "coordinates": [ -71.850161253089865, 42.252765678126735 ] } },
{ "type": "Feature", "properties": { "OBJECTID": 73, "NAME": "DEPARTMENT OF INSPECTIONAL SERVICES", "FULLADD": "25 MEADE ST", "CITY": "Worcester", "STATE": "MA", "WARD": 10, "PRECINCT": 5, "WARD_PREC": "10-5" }, "geometry": { "type": "Point", "coordinates": [ -71.801803511969226, 42.253795947059189 ] } },
{ "type": "Feature", "properties": { "OBJECTID": 74, "NAME": "WEBSTER SQUARE TOWERS, COMMUNITY ROOM", "FULLADD": "1050 MAIN ST", "CITY": "Worcester", "STATE": "MA", "WARD": 8, "PRECINCT": 4, "WARD_PREC": "8-4" }, "geometry": { "type": "Point", "coordinates": [ -71.831248670245074, 42.245971431990768 ] } },
{ "type": "Feature", "properties": { "OBJECTID": 75, "NAME": "SOUTH WORCESTER NEIGHBORHOOD CENTER", "FULLADD": "47 CAMP ST", "CITY": "Worcester", "STATE": "MA", "WARD": 8, "PRECINCT": 5, "WARD_PREC": "8-5" }, "geometry": { "type": "Point", "coordinates": [ -71.816598495196132, 42.242488392352129 ] } },
{ "type": "Feature", "properties": { "OBJECTID": 76, "NAME": "CENTRAL COMMUNITY BRANCH YMCA", "FULLADD": "766 MAIN ST", "CITY": "Worcester", "STATE": "MA", "WARD": 10, "PRECINCT": 6, "WARD_PREC": "10-6" }, "geometry": { "type": "Point", "coordinates": [ -71.8096319527437, 42.257612637950459 ] } },
{ "type": "Feature", "properties": { "OBJECTID": 77, "NAME": "HADWEN PARK CONGREGATIONAL CHURCH", "FULLADD": "6 CLOVER ST", "CITY": "Worcester", "STATE": "MA", "WARD": 7, "PRECINCT": 5, "WARD_PREC": "7-5" }, "geometry": { "type": "Point", "coordinates": [ -71.836809327388991, 42.230932641116489 ] } },
{ "type": "Feature", "properties": { "OBJECTID": 78, "NAME": "ASSUMPTION UNIVERSITY, LA MAISON FRANCAIS", "FULLADD": "500 SALISBURY ST", "CITY": "Worcester", "STATE": "MA", "WARD": 1, "PRECINCT": 3, "WARD_PREC": "1-3" }, "geometry": { "type": "Point", "coordinates": [ -71.829557801897096, 42.291383832627069 ] } },
{ "type": "Feature", "properties": { "OBJECTID": 79, "NAME": "CONGREGATION BETH ISRAEL, SOCIAL HALL", "FULLADD": "15 JAMESBURY DR", "CITY": "Worcester", "STATE": "MA", "WARD": 1, "PRECINCT": 4, "WARD_PREC": "1-4" }, "geometry": { "type": "Point", "coordinates": [ -71.828558878023202, 42.282364067537273 ] } },
{ "type": "Feature", "properties": { "OBJECTID": 80, "NAME": "MARKET 32", "FULLADD": "72 PULLMAN ST", "CITY": "Worcester", "STATE": "MA", "WARD": 1, "PRECINCT": 5, "WARD_PREC": "1-5" }, "geometry": { "type": "Point", "coordinates": [ -71.797403960484061, 42.323430642399231 ] } },
{ "type": "Feature", "properties": { "OBJECTID": 81, "NAME": "WORCESTER TECHNICAL HIGH SCHOOL, GYM", "FULLADD": "1 OFFICER MANNY FAMILIA WAY (FORMERLY SKYLINE DR)", "CITY": "Worcester", "STATE": "MA", "WARD": 3, "PRECINCT": 1, "WARD_PREC": "3-1" }, "geometry": { "type": "Point", "coordinates": [ -71.778177821563659, 42.278230634250562 ] } },
{ "type": "Feature", "properties": { "OBJECTID": 82, "NAME": "WORCESTER CENTER FOR CRAFTS", "FULLADD": "25 SAGAMORE RD", "CITY": "Worcester", "STATE": "MA", "WARD": 3, "PRECINCT": 3, "WARD_PREC": "3-3" }, "geometry": { "type": "Point", "coordinates": [ -71.807468774281233, 42.281263541940348 ] } },
{ "type": "Feature", "properties": { "OBJECTID": 83, "NAME": "BELMONT TOWER APARTMENTS, REAR, COMMUNITY ROOM", "FULLADD": "40 BELMONT ST", "CITY": "Worcester", "STATE": "MA", "WARD": 3, "PRECINCT": 2, "WARD_PREC": "3-2" }, "geometry": { "type": "Point", "coordinates": [ -71.79579217246949, 42.271256124890066 ] } },
{ "type": "Feature", "properties": { "OBJECTID": 84, "NAME": "MASSACHUSETTS AUDUBON SOCIETY BROAD MEADOW BROOK, LEARNING CENTER", "FULLADD": "414 MASSASOIT RD", "CITY": "Worcester", "STATE": "MA", "WARD": 5, "PRECINCT": 4, "WARD_PREC": "5-4" }, "geometry": { "type": "Point", "coordinates": [ -71.764394479379646, 42.233078174381767 ] } },
{ "type": "Feature", "properties": { "OBJECTID": 85, "NAME": "MASSACHUSETTS AUDUBON SOCIETY BROAD MEADOW BROOK, VISITOR CENTER", "FULLADD": "414 MASSASOIT RD", "CITY": "Worcester", "STATE": "MA", "WARD": 5, "PRECINCT": 5, "WARD_PREC": "5-5" }, "geometry": { "type": "Point", "coordinates": [ -71.764394479379646, 42.233078174381767 ] } },
{ "type": "Feature", "properties": { "OBJECTID": 86, "NAME": "STEARNS TAVERN", "FULLADD": "140 MILL ST", "CITY": "Worcester", "STATE": "MA", "WARD": 7, "PRECINCT": 3, "WARD_PREC": "7-3" }, "geometry": { "type": "Point", "coordinates": [ -71.837188115663466, 42.249559621121797 ] } },
{ "type": "Feature", "properties": { "OBJECTID": 87, "NAME": "ST. PETER'S CATHOLIC CHURCH, HALL", "FULLADD": "929 MAIN ST", "CITY": "Worcester", "STATE": "MA", "WARD": 8, "PRECINCT": 2, "WARD_PREC": "8-2" }, "geometry": { "type": "Point", "coordinates": [ -71.820620200861327, 42.250781866982969 ] } },
{ "type": "Feature", "properties": { "OBJECTID": 88, "NAME": "ORDER OF AHEPA LODGE", "FULLADD": "68 CEDAR ST", "CITY": "Worcester", "STATE": "MA", "WARD": 10, "PRECINCT": 2, "WARD_PREC": "10-2" }, "geometry": { "type": "Point", "coordinates": [ -71.813730408092539, 42.267261598144096 ] } },
{ "type": "Feature", "properties": { "OBJECTID": 89, "NAME": "ST. PETER'S CATHOLIC CHURCH, HALL", "FULLADD": "929 MAIN ST", "CITY": "Worcester", "STATE": "MA", "WARD": 8, "PRECINCT": 3, "WARD_PREC": "8-3" }, "geometry": { "type": "Point", "coordinates": [ -71.820620200861327, 42.250781866982969 ] } },
{ "type": "Feature", "properties": { "OBJECTID": 90, "NAME": "WORCESTER SENIOR CENTER, LUNCH ROOM", "FULLADD": "128 PROVIDENCE ST", "CITY": "Worcester", "STATE": "MA", "WARD": 6, "PRECINCT": 2, "WARD_PREC": "6-2" }, "geometry": { "type": "Point", "coordinates": [ -71.793207461712086, 42.247930062676637 ] } },
{ "type": "Feature", "properties": { "OBJECTID": 91, "NAME": "WORCESTER SENIOR CENTER, LUNCH ROOM", "FULLADD": "128 PROVIDENCE ST", "CITY": "Worcester", "STATE": "MA", "WARD": 6, "PRECINCT": 1, "WARD_PREC": "6-1" }, "geometry": { "type": "Point", "coordinates": [ -71.793207461712086, 42.247930062676637 ] } },
{ "type": "Feature", "properties": { "OBJECTID": 92, "NAME": "ELM PARK TOWER, COMMUNITY ROOM", "FULLADD": "425 PLEASANT ST", "CITY": "Worcester", "STATE": "MA", "WARD": 10, "PRECINCT": 4, "WARD_PREC": "10-4" }, "geometry": { "type": "Point", "coordinates": [ -71.816334926263494, 42.263674034205671 ] } },
{ "type": "Feature", "properties": { "OBJECTID": 93, "NAME": "CHRIST THE KING CATHOLIC CHURCH, SOCIAL HALL", "FULLADD": "1052 PLEASANT ST", "CITY": "Worcester", "STATE": "MA", "WARD": 9, "PRECINCT": 6, "WARD_PREC": "9-6" }, "geometry": { "type": "Point", "coordinates": [ -71.847597196320237, 42.278048996249289 ] } },
{ "type": "Feature", "properties": { "OBJECTID": 94, "NAME": "BLACKSTONE HERITAGE CORRIDOR VISITOR CENTER", "FULLADD": "3 PAUL CLANCY WAY", "CITY": "Worcester", "STATE": "MA", "WARD": 6, "PRECINCT": 3, "WARD_PREC": "6-3" }, "geometry": { "type": "Point", "coordinates": [ -71.79592415922211, 42.2365796110658 ] } },
{ "type": "Feature", "properties": { "OBJECTID": 95, "NAME": "SHAW'S SUPERMARKET", "FULLADD": "68 STAFFORD ST", "CITY": "Worcester", "STATE": "MA", "WARD": 7, "PRECINCT": 4, "WARD_PREC": "7-4" }, "geometry": { "type": "Point", "coordinates": [ -71.841925728432045, 42.241734455344144 ] } },
{ "type": "Feature", "properties": { "OBJECTID": 96, "NAME": "ZION LUTHERAN CHURCH, HALL", "FULLADD": "41 WHITMARSH AVE", "CITY": "Worcester", "STATE": "MA", "WARD": 2, "PRECINCT": 2, "WARD_PREC": "2-2" }, "geometry": { "type": "Point", "coordinates": [ -71.797656020047683, 42.304814361101201 ] } },
{ "type": "Feature", "properties": { "OBJECTID": 97, "NAME": "BURNCOAT HIGH SCHOOL, GYM", "FULLADD": "179 BURNCOAT ST", "CITY": "Worcester", "STATE": "MA", "WARD": 2, "PRECINCT": 3, "WARD_PREC": "2-3" }, "geometry": { "type": "Point", "coordinates": [ -71.787839490699469, 42.296997710802437 ] } },
{ "type": "Feature", "properties": { "OBJECTID": 98, "NAME": "NELSON PLACE ELEMENTARY SCHOOL, GYM", "FULLADD": "35 NELSON PL", "CITY": "Worcester", "STATE": "MA", "WARD": 1, "PRECINCT": 2, "WARD_PREC": "1-2" }, "geometry": { "type": "Point", "coordinates": [ -71.821636811470242, 42.294458197017995 ] } },
{ "type": "Feature", "properties": { "OBJECTID": 99, "NAME": "LAKE PARK COMMUNITY HOUSE", "FULLADD": "300 LAKE AVE", "CITY": "Worcester", "STATE": "MA", "WARD": 5, "PRECINCT": 3, "WARD_PREC": "5-3" }, "geometry": { "type": "Point", "coordinates": [ -71.755169808469816, 42.259589919955459 ] } },
{ "type": "Feature", "properties": { "OBJECTID": 100, "NAME": "MURRAY AVENUE APARTMENTS, COMMUNITY ROOM", "FULLADD": "50 MURRAY AVE", "CITY": "Worcester", "STATE": "MA", "WARD": 10, "PRECINCT": 3, "WARD_PREC": "10-3" }, "geometry": { "type": "Point", "coordinates": [ -71.80739265071783, 42.259614930541368 ] } },
{ "type": "Feature", "properties": { "OBJECTID": 101, "NAME": "WORCESTER SEVENTH-DAY ADVENTIST CHURCH", "FULLADD": "2 AIRPORT DR", "CITY": "Worcester", "STATE": "MA", "WARD": 9, "PRECINCT": 4, "WARD_PREC": "9-4" }, "geometry": { "type": "Point", "coordinates": [ -71.85533975314965, 42.274412959216114 ] } },
{ "type": "Feature", "properties": { "OBJECTID": 102, "NAME": "EMANUEL LUTHERAN CHURCH", "FULLADD": "200 GREENWOOD ST", "CITY": "Worcester", "STATE": "MA", "WARD": 6, "PRECINCT": 6, "WARD_PREC": "6-6" }, "geometry": { "type": "Point", "coordinates": [ -71.795972586708189, 42.224474976647606 ] } },
{ "type": "Feature", "properties": { "OBJECTID": 103, "NAME": "LINCOLN VILLAGE RESIDENTS ALLIANCE", "FULLADD": "116 COUNTRY CLUB BLVD", "CITY": "Worcester", "STATE": "MA", "WARD": 2, "PRECINCT": 4, "WARD_PREC": "2-4" }, "geometry": { "type": "Point", "coordinates": [ -71.774888721935412, 42.298835458114056 ] } },
{ "type": "Feature", "properties": { "OBJECTID": 104, "NAME": "BEAVER BROOK COMMUNITY BUILDING", "FULLADD": "15 MANN ST", "CITY": "Worcester", "STATE": "MA", "WARD": 7, "PRECINCT": 1, "WARD_PREC": "7-1" }, "geometry": { "type": "Point", "coordinates": [ -71.826975355882965, 42.260508842151552 ] } },
{ "type": "Feature", "properties": { "OBJECTID": 105, "NAME": "OUR LADY OF LORETO", "FULLADD": "33 MASSASOIT RD", "CITY": "Worcester", "STATE": "MA", "WARD": 5, "PRECINCT": 6, "WARD_PREC": "5-6" }, "geometry": { "type": "Point", "coordinates": [ -71.777482586956765, 42.249394641987294 ] } },
{ "type": "Feature", "properties": { "OBJECTID": 106, "NAME": "MOUNT CARMEL APARTMENTS", "FULLADD": "50 SHREWSBURY ST", "CITY": "Worcester", "STATE": "MA", "WARD": 4, "PRECINCT": 4, "WARD_PREC": "4-4" }, "geometry": { "type": "Point", "coordinates": [ -71.792429474890213, 42.263062908834826 ] } },
{ "type": "Feature", "properties": { "OBJECTID": 107, "NAME": "AMERICAN LEGION EAST SIDE POST", "FULLADD": "326 PLANTATION ST", "CITY": "Worcester", "STATE": "MA", "WARD": 4, "PRECINCT": 2, "WARD_PREC": "4-2" }, "geometry": { "type": "Point", "coordinates": [ -71.77022546728206, 42.270788336000706 ] } },
{ "type": "Feature", "properties": { "OBJECTID": 108, "NAME": "CONGREGATION BETH ISRAEL, SOCIAL HALL", "FULLADD": "15 JAMESBURY DR", "CITY": "Worcester", "STATE": "MA", "WARD": 1, "PRECINCT": 1, "WARD_PREC": "1-1" }, "geometry": { "type": "Point", "coordinates": [ -71.828558878023202, 42.282364067537273 ] } },
{ "type": "Feature", "properties": { "OBJECTID": 109, "NAME": "SALEM COVENANT CHURCH, HALL", "FULLADD": "215 MOUNTAIN ST EAST", "CITY": "Worcester", "STATE": "MA", "WARD": 2, "PRECINCT": 6, "WARD_PREC": "2-6" }, "geometry": { "type": "Point", "coordinates": [ -71.774797147843842, 42.31796565522702 ] } },
{ "type": "Feature", "properties": { "OBJECTID": 110, "NAME": "AMERICAN LEGION EAST SIDE POST", "FULLADD": "326 PLANTATION ST", "CITY": "Worcester", "STATE": "MA", "WARD": 4, "PRECINCT": 2, "WARD_PREC": "4-2A" }, "geometry": { "type": "Point", "coordinates": [ -71.77022546728206, 42.270788336000706 ] } },
{ "type": "Feature", "properties": { "OBJECTID": 111, "NAME": "HADWEN PARK CONGREGATIONAL CHURCH", "FULLADD": "6 CLOVER ST", "CITY": "Worcester", "STATE": "MA", "WARD": 7, "PRECINCT": 5, "WARD_PREC": "7-5A" }, "geometry": { "type": "Point", "coordinates": [ -71.836809327388991, 42.230932641116489 ] } },
{ "type": "Feature", "properties": { "OBJECTID": 112, "NAME": "ORDER OF AHEPA LODGE", "FULLADD": "68 CEDAR ST", "CITY": "Worcester", "STATE": "MA", "WARD": 10, "PRECINCT": 1, "WARD_PREC": "10-1" }, "geometry": { "type": "Point", "coordinates": [ -71.813730408092539, 42.267261598144096 ] } },
{ "type": "Feature", "properties": { "OBJECTID": 113, "NAME": "SHAW'S SUPERMARKET", "FULLADD": "68 STAFFORD ST", "CITY": "Worcester", "STATE": "MA", "WARD": 7, "PRECINCT": 6, "WARD_PREC": "7-6" }, "geometry": { "type": "Point", "coordinates": [ -71.841925728432045, 42.241734455344144 ] } },
{ "type": "Feature", "properties": { "OBJECTID": 114, "NAME": "BURNCOAT HIGH SCHOOL, GYM", "FULLADD": "179 BURNCOAT ST", "CITY": "Worcester", "STATE": "MA", "WARD": 3, "PRECINCT": 6, "WARD_PREC": "3-6" }, "geometry": { "type": "Point", "coordinates": [ -71.787807626929776, 42.296993118092146 ] } },
{ "type": "Feature", "properties": { "OBJECTID": 115, "NAME": "NORTH HIGH SCHOOL, GYM", "FULLADD": "150 HARRINGTON WAY", "CITY": "Worcester", "STATE": "MA", "WARD": 4, "PRECINCT": 6, "WARD_PREC": "4-6" }, "geometry": { "type": "Point", "coordinates": [ -71.767315316982604, 42.260887442410059 ] } },
{ "type": "Feature", "properties": { "OBJECTID": 116, "NAME": "NORTH HIGH SCHOOL, GYM", "FULLADD": "150 HARRINGTON WAY", "CITY": "Worcester", "STATE": "MA", "WARD": 5, "PRECINCT": 2, "WARD_PREC": "5-2" }, "geometry": { "type": "Point", "coordinates": [ -71.767315316982604, 42.260887442410059 ] } },
{ "type": "Feature", "properties": { "OBJECTID": 117, "NAME": "WORCESTER PUBLIC LIBRARY, SAXE ROOM", "FULLADD": "3 SALEM ST", "CITY": "Worcester", "STATE": "MA", "WARD": 4, "PRECINCT": 3, "WARD_PREC": "4-3" }, "geometry": { "type": "Point", "coordinates": [ -71.800495729984959, 42.260261707420661 ] } },
{ "type": "Feature", "properties": { "OBJECTID": 118, "NAME": "WORCESTER SENIOR CENTER, LUNCH ROOM", "FULLADD": "128 PROVIDENCE ST", "CITY": "Worcester", "STATE": "MA", "WARD": 8, "PRECINCT": 1, "WARD_PREC": "8-1" }, "geometry": { "type": "Point", "coordinates": [ -71.793207461712086, 42.247930062676637 ] } },
{ "type": "Feature", "properties": { "OBJECTID": 119, "NAME": "ST. MATTHEW'S CHURCH", "FULLADD": "695 SOUTHBRIDGE ST", "CITY": "Worcester", "STATE": "MA", "WARD": 6, "PRECINCT": 4, "WARD_PREC": "6-4" }, "geometry": { "type": "Point", "coordinates": [ -71.811522422090107, 42.243482776429616 ] } },
{ "type": "Feature", "properties": { "OBJECTID": 120, "NAME": "ST. MATTHEW'S CHURCH", "FULLADD": "695 SOUTHBRIDGE ST", "CITY": "Worcester", "STATE": "MA", "WARD": 8, "PRECINCT": 6, "WARD_PREC": "8-6" }, "geometry": { "type": "Point", "coordinates": [ -71.811522422090107, 42.243482776429616 ] } },
{ "type": "Feature", "properties": { "OBJECTID": 121, "NAME": "CHRIST THE KING CATHOLIC CHURCH, SOCIAL HALL", "FULLADD": "1052 PLEASANT ST", "CITY": "Worcester", "STATE": "MA", "WARD": 9, "PRECINCT": 3, "WARD_PREC": "9-3" }, "geometry": { "type": "Point", "coordinates": [ -71.847597196320237, 42.278048996249289 ] } },
{ "type": "Feature", "properties": { "OBJECTID": 122, "NAME": "CONGREGATION BETH ISRAEL, SOCIAL HALL", "FULLADD": "15 JAMESBURY DR", "CITY": "Worcester", "STATE": "MA", "WARD": 9, "PRECINCT": 5, "WARD_PREC": "9-5" }, "geometry": { "type": "Point", "coordinates": [ -71.828558878023202, 42.282364067537273 ] } },
{ "type": "Feature", "properties": { "OBJECTID": 123, "NAME": "BLESSED SACRAMENT CHURCH, PHELAN CENTER, GYM", "FULLADD": "551 PLEASANT ST", "CITY": "Worcester", "STATE": "MA", "WARD": 9, "PRECINCT": 1, "WARD_PREC": "9-1" }, "geometry": { "type": "Point", "coordinates": [ -71.820902623760205, 42.264725664939 ] } },
{ "type": "Feature", "properties": { "OBJECTID": 124, "NAME": "BLESSED SACRAMENT CHURCH, PHELAN CENTER, GYM", "FULLADD": "551 PLEASANT ST", "CITY": "Worcester", "STATE": "MA", "WARD": 9, "PRECINCT": 2, "WARD_PREC": "9-2" }, "geometry": { "type": "Point", "coordinates": [ -71.820902623760205, 42.264725664939 ] } },
{ "type": "Feature", "properties": { "OBJECTID": 125, "NAME": "SALEM COVENANT CHURCH, HALL", "FULLADD": "215 MOUNTAIN ST EAST", "CITY": "Worcester", "STATE": "MA", "WARD": 2, "PRECINCT": 6, "WARD_PREC": "2-6A" }, "geometry": { "type": "Point", "coordinates": [ -71.774797147843842, 42.31796565522702 ] } },
{ "type": "Feature", "properties": { "OBJECTID": 126, "NAME": "WORCESTER CENTER FOR CRAFTS", "FULLADD": "25 SAGAMORE RD", "CITY": "Worcester", "STATE": "MA", "WARD": 3, "PRECINCT": 3, "WARD_PREC": "3-3A" }, "geometry": { "type": "Point", "coordinates": [ -71.807468774281233, 42.281263541940348 ] } },
{ "type": "Feature", "properties": { "OBJECTID": 127, "NAME": "LIVING WORD CHURCH", "FULLADD": "30 TYLER PRENTICE RD", "CITY": "Worcester", "STATE": "MA", "WARD": 3, "PRECINCT": 5, "WARD_PREC": "3-5A" }, "geometry": { "type": "Point", "coordinates": [ -71.769555841139223, 42.293735889637375 ] } },
{ "type": "Feature", "properties": { "OBJECTID": 128, "NAME": "AMERICAN LEGION EAST SIDE POST", "FULLADD": "326 PLANTATION ST", "CITY": "Worcester", "STATE": "MA", "WARD": 4, "PRECINCT": 2, "WARD_PREC": "4-2B" }, "geometry": { "type": "Point", "coordinates": [ -71.77022546728206, 42.270788336000706 ] } },
{ "type": "Feature", "properties": { "OBJECTID": 129, "NAME": "ELM PARK TOWER, COMMUNITY ROOM", "FULLADD": "425 PLEASANT ST", "CITY": "Worcester", "STATE": "MA", "WARD": 10, "PRECINCT": 4, "WARD_PREC": "10-4A" }, "geometry": { "type": "Point", "coordinates": [ -71.816334926263494, 42.263674034205671 ] } }
]
}
